timestamp,Roll_Radians,Pitch_Radians,Yaw_Radians,Latitude,Longitude,Acc_net,Altitude,Voltage,System_State
2024-11-18T17:33:42.938742,2.575,-1.354,1.994,0.0000000,0.0000000,0.820,605.991,4.909,0
2024-11-18T17:33:43.048101,2.581,-1.354,1.987,0.0000000,0.0000000,0.753,605.989,4.919,0
2024-11-18T17:33:43.157420,2.588,-1.353,1.980,0.0000000,0.0000000,0.773,606.007,4.909,0
2024-11-18T17:33:43.268404,2.595,-1.353,1.973,0.0000000,0.0000000,0.850,606.031,4.929,0
2024-11-18T17:33:43.378797,2.602,-1.352,1.967,0.0000000,0.0000000,0.786,606.029,4.929,0
2024-11-18T17:33:43.488715,2.608,-1.352,1.960,0.0000000,0.0000000,0.882,606.051,4.929,0
2024-11-18T17:33:43.598529,2.615,-1.351,1.954,0.0000000,0.0000000,0.805,606.030,4.940,0
2024-11-18T17:33:43.708715,2.621,-1.351,1.947,0.0000000,0.0000000,0.773,606.034,4.940,0
2024-11-18T17:33:43.818416,2.628,-1.350,1.941,0.0000000,0.0000000,0.850,606.051,4.950,0
2024-11-18T17:33:43.930352,2.635,-1.350,1.934,0.0000000,0.0000000,0.786,606.060,4.940,0
2024-11-18T17:33:44.039467,2.641,-1.349,1.928,0.0000000,0.0000000,0.805,606.047,4.919,0
2024-11-18T17:33:44.148611,2.647,-1.348,1.922,0.0000000,0.0000000,0.786,606.071,4.929,0
2024-11-18T17:33:44.258637,2.654,-1.348,1.915,0.0000000,0.0000000,0.902,606.065,4.929,0
2024-11-18T17:33:44.367846,2.660,-1.347,1.909,0.0000000,0.0000000,0.786,606.060,4.919,0
2024-11-18T17:33:44.479041,2.667,-1.347,1.903,0.0000000,0.0000000,0.801,606.098,4.909,0
2024-11-18T17:33:44.588952,2.673,-1.346,1.896,0.0000000,0.0000000,0.786,606.108,4.909,0
2024-11-18T17:33:44.698578,2.679,-1.345,1.891,0.0000000,0.0000000,0.874,606.128,4.909,0
2024-11-18T17:33:44.809228,2.686,-1.345,1.884,0.0000000,0.0000000,0.722,606.164,4.898,0
2024-11-18T17:33:44.919568,2.692,-1.344,1.877,0.0000000,0.0000000,0.805,606.143,4.919,0
2024-11-18T17:33:45.028486,2.698,-1.343,1.872,0.0000000,0.0000000,0.786,606.132,4.909,0
2024-11-18T17:33:45.139517,2.704,-1.343,1.865,0.0000000,0.0000000,0.868,606.162,4.919,0
2024-11-18T17:33:45.248696,2.710,-1.342,1.859,0.0000000,0.0000000,0.786,606.184,4.929,0
2024-11-18T17:33:45.358207,2.716,-1.341,1.853,0.0000000,0.0000000,0.829,606.177,4.929,0
2024-11-18T17:33:45.468067,2.722,-1.341,1.847,0.0000000,0.0000000,0.856,606.192,4.929,0
2024-11-18T17:33:45.578739,2.728,-1.340,1.842,0.0000000,0.0000000,0.805,606.187,4.929,0
2024-11-18T17:33:45.688341,2.734,-1.339,1.836,0.0000000,0.0000000,0.868,606.177,4.940,0
2024-11-18T17:33:45.798766,2.740,-1.339,1.830,0.0000000,0.0000000,0.850,606.163,4.929,0
2024-11-18T17:33:45.908401,2.746,-1.338,1.824,0.0000000,0.0000000,0.776,606.189,4.919,0
2024-11-18T17:33:46.018093,2.752,-1.337,1.818,0.0000000,0.0000000,0.850,606.211,4.929,0
2024-11-18T17:33:46.129315,2.758,-1.336,1.812,0.0000000,0.0000000,0.773,606.184,4.940,0
2024-11-18T17:33:46.238276,2.764,-1.336,1.806,0.0000000,0.0000000,0.840,606.210,4.940,0
2024-11-18T17:33:46.348897,2.770,-1.335,1.801,0.0000000,0.0000000,0.756,606.188,4.909,0
2024-11-18T17:33:46.457905,2.776,-1.334,1.795,0.0000000,0.0000000,0.805,606.243,4.929,0
2024-11-18T17:33:46.568813,2.781,-1.333,1.789,0.0000000,0.0000000,0.836,606.252,4.909,0
2024-11-18T17:33:46.677770,2.787,-1.333,1.784,0.0000000,0.0000000,0.693,606.251,4.919,0
2024-11-18T17:33:46.788661,2.793,-1.332,1.778,0.0000000,0.0000000,0.836,606.240,4.919,0
2024-11-18T17:33:46.898720,2.798,-1.331,1.773,0.0000000,0.0000000,0.805,606.209,4.919,0
2024-11-18T17:33:47.008737,2.804,-1.330,1.767,0.0000000,0.0000000,0.786,606.235,4.919,0
2024-11-18T17:33:47.118345,2.809,-1.329,1.762,0.0000000,0.0000000,0.776,606.205,4.919,0
2024-11-18T17:33:47.228104,2.815,-1.329,1.756,0.0000000,0.0000000,0.817,606.211,4.919,0
2024-11-18T17:33:47.338095,2.821,-1.328,1.750,0.0000000,0.0000000,0.817,606.182,4.919,0
2024-11-18T17:33:47.448711,2.826,-1.327,1.745,0.0000000,0.0000000,0.753,606.204,4.940,0
2024-11-18T17:33:47.558517,2.831,-1.326,1.740,0.0000000,0.0000000,0.860,606.209,4.940,0
2024-11-18T17:33:47.667671,2.837,-1.325,1.735,0.0000000,0.0000000,0.834,606.243,4.940,0
2024-11-18T17:33:47.778435,2.842,-1.324,1.730,0.0000000,0.0000000,0.885,606.251,4.940,0
2024-11-18T17:33:47.888334,2.847,-1.324,1.724,0.0000000,0.0000000,0.817,606.235,4.929,0
2024-11-18T17:33:47.998349,2.853,-1.323,1.719,0.0000000,0.0000000,0.817,606.279,4.929,0
2024-11-18T17:33:48.108764,2.858,-1.322,1.713,0.0000000,0.0000000,0.836,606.270,4.929,0
2024-11-18T17:33:48.218608,2.863,-1.321,1.709,0.0000000,0.0000000,0.850,606.289,4.940,0
2024-11-18T17:33:48.328203,2.868,-1.320,1.704,0.0000000,0.0000000,0.805,606.320,4.929,0
2024-11-18T17:33:48.438570,2.873,-1.319,1.698,0.0000000,0.0000000,0.820,606.344,4.919,0
2024-11-18T17:33:48.548989,2.879,-1.318,1.693,0.0000000,0.0000000,0.786,606.329,4.929,0
2024-11-18T17:33:48.658548,2.884,-1.317,1.688,0.0000000,0.0000000,0.805,606.322,4.919,0
2024-11-18T17:33:48.769623,2.889,-1.316,1.683,0.0000000,0.0000000,0.786,606.312,4.919,0
2024-11-18T17:33:48.878684,2.894,-1.315,1.678,0.0000000,0.0000000,0.850,606.294,4.909,0
2024-11-18T17:33:48.989443,2.899,-1.314,1.673,0.0000000,0.0000000,0.820,606.258,4.919,0
2024-11-18T17:33:49.099937,2.904,-1.313,1.668,0.0000000,0.0000000,0.786,606.247,4.919,0
2024-11-18T17:33:49.208713,2.909,-1.312,1.663,0.0000000,0.0000000,0.839,606.217,4.919,0
2024-11-18T17:33:49.318154,2.913,-1.311,1.659,0.0000000,0.0000000,0.839,606.204,4.929,0
2024-11-18T17:33:49.427848,2.918,-1.310,1.654,0.0000000,0.0000000,0.773,606.197,4.929,0
2024-11-18T17:33:49.538558,2.923,-1.309,1.649,0.0000000,0.0000000,0.817,606.169,4.929,0
2024-11-18T17:33:49.648652,2.928,-1.308,1.645,0.0000000,0.0000000,0.776,606.243,4.940,0
2024-11-18T17:33:49.759591,2.933,-1.307,1.640,0.0000000,0.0000000,0.776,606.235,4.929,0
2024-11-18T17:33:49.868541,2.937,-1.307,1.635,0.0000000,0.0000000,0.786,606.244,4.940,0
2024-11-18T17:33:49.977742,2.942,-1.306,1.630,0.0000000,0.0000000,0.786,606.242,4.929,0
2024-11-18T17:33:50.087861,2.947,-1.305,1.626,0.0000000,0.0000000,0.786,606.267,4.940,0
2024-11-18T17:33:50.197816,2.951,-1.304,1.621,0.0000000,0.0000000,0.756,606.282,4.929,0
2024-11-18T17:33:50.308413,2.956,-1.303,1.617,0.0000000,0.0000000,0.817,606.281,4.909,0
2024-11-18T17:33:50.417882,2.961,-1.302,1.612,0.0000000,0.0000000,0.870,606.302,4.909,0
2024-11-18T17:33:50.528429,2.965,-1.300,1.608,0.0000000,0.0000000,0.786,606.318,4.919,0
2024-11-18T17:33:50.638489,2.970,-1.299,1.603,0.0000000,0.0000000,0.753,606.306,4.919,0
2024-11-18T17:33:50.748551,2.974,-1.298,1.599,0.0000000,0.0000000,0.820,606.261,4.919,0
2024-11-18T17:33:50.858755,2.979,-1.297,1.594,0.0000000,0.0000000,0.786,606.288,4.909,0
2024-11-18T17:33:50.968253,2.983,-1.296,1.590,0.0000000,0.0000000,0.801,606.331,4.919,0
2024-11-18T17:33:51.079234,2.988,-1.295,1.585,0.0000000,0.0000000,0.786,606.282,4.929,0
2024-11-18T17:33:51.187908,2.993,-1.294,1.581,0.0000000,0.0000000,0.820,606.277,4.919,0
2024-11-18T17:33:51.298294,2.997,-1.293,1.577,0.0000000,0.0000000,0.773,606.264,4.929,0
2024-11-18T17:33:51.408774,3.001,-1.292,1.572,0.0000000,0.0000000,0.839,606.240,4.929,0
2024-11-18T17:33:51.518800,3.005,-1.291,1.568,0.0000000,0.0000000,0.786,606.258,4.940,0
2024-11-18T17:33:51.628705,3.010,-1.290,1.564,0.0000000,0.0000000,0.850,606.296,4.929,0
2024-11-18T17:33:51.738535,3.014,-1.289,1.560,0.0000000,0.0000000,0.820,606.227,4.919,0
2024-11-18T17:33:51.848571,3.018,-1.288,1.555,0.0000000,0.0000000,0.811,606.221,4.940,0
2024-11-18T17:33:51.958510,3.022,-1.286,1.551,0.0000000,0.0000000,0.773,606.200,4.940,0
2024-11-18T17:33:52.068079,3.026,-1.285,1.547,0.0000000,0.0000000,0.753,606.239,4.940,0
2024-11-18T17:33:52.178453,3.031,-1.284,1.543,0.0000000,0.0000000,0.836,606.235,4.929,0
2024-11-18T17:33:52.289614,3.034,-1.283,1.539,0.0000000,0.0000000,0.786,606.253,4.919,0
2024-11-18T17:33:52.398487,3.039,-1.282,1.535,0.0000000,0.0000000,0.776,606.214,4.919,0
2024-11-18T17:33:52.508428,3.043,-1.281,1.531,0.0000000,0.0000000,0.839,606.215,4.919,0
2024-11-18T17:33:52.618392,3.047,-1.280,1.527,0.0000000,0.0000000,0.834,606.208,4.929,0
2024-11-18T17:33:52.728293,3.051,-1.279,1.523,0.0000000,0.0000000,0.786,606.213,4.909,0
2024-11-18T17:33:52.838840,3.054,-1.278,1.520,0.0000000,0.0000000,0.786,606.205,4.919,0
2024-11-18T17:33:52.949351,3.058,-1.276,1.516,0.0000000,0.0000000,0.796,606.183,4.909,0
2024-11-18T17:33:53.058475,3.062,-1.275,1.512,0.0000000,0.0000000,0.850,606.227,4.909,0
2024-11-18T17:33:53.167666,3.066,-1.274,1.508,0.0000000,0.0000000,0.792,606.252,4.919,0
2024-11-18T17:33:53.278599,3.070,-1.273,1.504,0.0000000,0.0000000,0.786,606.252,4.929,0
2024-11-18T17:33:53.388419,3.074,-1.272,1.501,0.0000000,0.0000000,0.811,606.223,4.929,0
2024-11-18T17:33:53.498875,3.078,-1.271,1.497,0.0000000,0.0000000,0.786,606.190,4.940,0
2024-11-18T17:33:53.608345,3.081,-1.269,1.493,0.0000000,0.0000000,0.753,606.178,4.929,0
2024-11-18T17:33:53.717921,3.085,-1.268,1.490,0.0000000,0.0000000,0.817,606.196,4.940,0
2024-11-18T17:33:53.829142,3.088,-1.267,1.486,0.0000000,0.0000000,0.850,606.240,4.929,0
2024-11-18T17:33:53.938212,3.092,-1.266,1.483,0.0000000,0.0000000,0.786,606.282,4.940,0
2024-11-18T17:33:54.048601,3.096,-1.265,1.479,0.0000000,0.0000000,0.805,606.293,4.940,0
2024-11-18T17:33:54.158318,3.099,-1.264,1.475,0.0000000,0.0000000,0.839,606.224,4.929,0
2024-11-18T17:33:54.268448,3.103,-1.262,1.472,0.0000000,0.0000000,0.836,606.214,4.909,0
2024-11-18T17:33:54.378613,3.106,-1.261,1.469,0.0000000,0.0000000,0.805,606.248,4.909,0
2024-11-18T17:33:54.488376,3.109,-1.260,1.465,0.0000000,0.0000000,0.769,606.257,4.919,0
2024-11-18T17:33:54.597487,3.113,-1.259,1.462,0.0000000,0.0000000,0.786,606.237,4.909,0
2024-11-18T17:33:54.708665,3.117,-1.258,1.458,0.0000000,0.0000000,0.805,606.241,4.929,0
2024-11-18T17:33:54.818158,3.120,-1.257,1.455,0.0000000,0.0000000,0.868,606.222,4.909,0
2024-11-18T17:33:54.928193,3.123,-1.255,1.452,0.0000000,0.0000000,0.767,606.202,4.919,0
2024-11-18T17:33:55.039288,3.127,-1.254,1.449,0.0000000,0.0000000,0.786,606.217,4.909,0
2024-11-18T17:33:55.149031,3.130,-1.253,1.445,0.0000000,0.0000000,0.769,606.188,4.909,0
2024-11-18T17:33:55.258712,3.133,-1.252,1.442,0.0000000,0.0000000,0.839,606.167,4.929,0
2024-11-18T17:33:55.368569,3.137,-1.250,1.439,0.0000000,0.0000000,0.820,606.156,4.929,0
2024-11-18T17:33:55.477895,3.140,-1.249,1.436,0.0000000,0.0000000,0.817,606.147,4.929,0
2024-11-18T17:33:55.588932,-3.140,-1.248,1.432,0.0000000,0.0000000,0.836,606.160,4.929,0
2024-11-18T17:33:55.698515,-3.137,-1.247,1.429,0.0000000,0.0000000,0.805,606.154,4.940,0
2024-11-18T17:33:55.808813,-3.133,-1.245,1.426,0.0000000,0.0000000,0.839,606.109,4.940,0
2024-11-18T17:33:55.918328,-3.130,-1.244,1.423,0.0000000,0.0000000,0.773,606.111,4.929,0
2024-11-18T17:33:56.028010,-3.127,-1.243,1.420,0.0000000,0.0000000,0.820,606.098,4.940,0
2024-11-18T17:33:56.138670,-3.124,-1.242,1.417,0.0000000,0.0000000,0.836,606.099,4.929,0
2024-11-18T17:33:56.248787,-3.121,-1.240,1.413,0.0000000,0.0000000,0.786,606.117,4.929,0
2024-11-18T17:33:56.358393,-3.118,-1.239,1.411,0.0000000,0.0000000,0.805,606.082,4.909,0
2024-11-18T17:33:56.468548,-3.115,-1.238,1.407,0.0000000,0.0000000,0.786,606.082,4.919,0
2024-11-18T17:33:56.578646,-3.111,-1.236,1.404,0.0000000,0.0000000,0.839,606.049,4.919,0
2024-11-18T17:33:56.689078,-3.108,-1.235,1.401,0.0000000,0.0000000,0.786,606.075,4.929,0
2024-11-18T17:33:56.798762,-3.105,-1.234,1.399,0.0000000,0.0000000,0.786,606.065,4.919,0
2024-11-18T17:33:56.908387,-3.103,-1.232,1.396,0.0000000,0.0000000,0.817,606.072,4.919,0
2024-11-18T17:33:57.018448,-3.100,-1.231,1.393,0.0000000,0.0000000,0.817,606.073,4.909,0
2024-11-18T17:33:57.127908,-3.097,-1.230,1.391,0.0000000,0.0000000,0.773,606.069,4.909,0
2024-11-18T17:33:57.239080,-3.094,-1.228,1.388,0.0000000,0.0000000,0.792,606.062,4.919,0
2024-11-18T17:33:57.348477,-3.091,-1.227,1.385,0.0000000,0.0000000,0.786,606.057,4.940,0
2024-11-18T17:33:57.459168,-3.088,-1.226,1.382,0.0000000,0.0000000,0.773,606.065,4.950,0
2024-11-18T17:33:57.569412,-3.085,-1.224,1.379,0.0000000,0.0000000,0.792,606.086,4.940,0
2024-11-18T17:33:57.678744,-3.082,-1.223,1.376,0.0000000,0.0000000,0.786,606.108,4.940,0
2024-11-18T17:33:57.787801,-3.080,-1.222,1.373,0.0000000,0.0000000,0.839,606.097,4.929,0
2024-11-18T17:33:57.899337,-3.077,-1.220,1.371,0.0000000,0.0000000,0.839,606.096,4.940,0
2024-11-18T17:33:58.009378,-3.074,-1.219,1.368,0.0000000,0.0000000,0.850,606.093,4.940,0
2024-11-18T17:33:58.118421,-3.071,-1.218,1.365,0.0000000,0.0000000,0.834,606.101,4.940,0
2024-11-18T17:33:58.227658,-3.068,-1.216,1.362,0.0000000,0.0000000,0.805,606.092,4.940,0
2024-11-18T17:33:58.337384,-3.066,-1.215,1.360,0.0000000,0.0000000,0.856,606.081,4.919,0
2024-11-18T17:33:58.448911,-3.063,-1.214,1.357,0.0000000,0.0000000,0.786,606.129,4.909,0
2024-11-18T17:33:58.558747,-3.060,-1.212,1.354,0.0000000,0.0000000,0.836,606.151,4.929,0
2024-11-18T17:33:58.667856,-3.058,-1.211,1.352,0.0000000,0.0000000,0.805,606.143,4.919,0
2024-11-18T17:33:58.779917,-3.055,-1.210,1.349,0.0000000,0.0000000,0.773,606.139,4.929,0
2024-11-18T17:33:58.888871,-3.052,-1.208,1.347,0.0000000,0.0000000,0.817,606.124,4.919,0
2024-11-18T17:33:58.999079,-3.050,-1.207,1.344,0.0000000,0.0000000,0.753,606.127,4.909,0
2024-11-18T17:33:59.108463,-3.047,-1.206,1.341,0.0000000,0.0000000,0.743,606.106,4.929,0
2024-11-18T17:33:59.218387,-3.044,-1.204,1.339,0.0000000,0.0000000,0.883,606.142,4.919,0
2024-11-18T17:33:59.328389,-3.042,-1.203,1.336,0.0000000,0.0000000,0.805,606.132,4.929,0
2024-11-18T17:33:59.439399,-3.039,-1.202,1.334,0.0000000,0.0000000,0.753,606.123,4.929,0
2024-11-18T17:33:59.548355,-3.037,-1.200,1.331,0.0000000,0.0000000,0.839,606.092,4.940,0
2024-11-18T17:33:59.658340,-3.035,-1.199,1.329,0.0000000,0.0000000,0.804,606.114,4.940,0
2024-11-18T17:33:59.768202,-3.032,-1.197,1.327,0.0000000,0.0000000,0.773,606.092,4.940,0
2024-11-18T17:33:59.878468,-3.030,-1.196,1.324,0.0000000,0.0000000,0.786,606.109,4.929,0
2024-11-18T17:33:59.989186,-3.027,-1.195,1.322,0.0000000,0.0000000,0.722,606.131,4.940,0
2024-11-18T17:34:00.098889,-3.025,-1.193,1.319,0.0000000,0.0000000,0.786,606.137,4.940,0
2024-11-18T17:34:00.208326,-3.022,-1.192,1.317,0.0000000,0.0000000,0.769,606.092,4.940,0
2024-11-18T17:34:00.318702,-3.020,-1.190,1.315,0.0000000,0.0000000,0.805,606.107,4.919,0
2024-11-18T17:34:00.428598,-3.017,-1.189,1.312,0.0000000,0.0000000,0.820,606.090,4.919,0
2024-11-18T17:34:00.538720,-3.015,-1.188,1.310,0.0000000,0.0000000,0.753,606.098,4.919,0
2024-11-18T17:34:00.648084,-3.013,-1.186,1.308,0.0000000,0.0000000,0.776,606.066,4.929,0
2024-11-18T17:34:00.758606,-3.010,-1.185,1.305,0.0000000,0.0000000,0.820,606.074,4.919,0
2024-11-18T17:34:00.869352,-3.008,-1.183,1.303,0.0000000,0.0000000,0.900,606.052,4.919,0
2024-11-18T17:34:00.978671,-3.006,-1.182,1.301,0.0000000,0.0000000,0.817,606.074,4.919,0
2024-11-18T17:34:01.088677,-3.003,-1.181,1.299,0.0000000,0.0000000,0.769,606.130,4.929,0
2024-11-18T17:34:01.198583,-3.001,-1.179,1.296,0.0000000,0.0000000,0.805,606.141,4.929,0
2024-11-18T17:34:01.308413,-2.999,-1.178,1.294,0.0000000,0.0000000,0.743,606.112,4.940,0
2024-11-18T17:34:01.418401,-2.996,-1.176,1.292,0.0000000,0.0000000,0.850,606.089,4.929,0
2024-11-18T17:34:01.528335,-2.994,-1.175,1.290,0.0000000,0.0000000,0.786,606.109,4.940,0
2024-11-18T17:34:01.639358,-2.992,-1.174,1.287,0.0000000,0.0000000,0.817,606.101,4.940,0
2024-11-18T17:34:01.749002,-2.989,-1.172,1.285,0.0000000,0.0000000,0.840,606.144,4.940,0
2024-11-18T17:34:01.858258,-2.987,-1.171,1.283,0.0000000,0.0000000,0.805,606.136,4.940,0
2024-11-18T17:34:01.968156,-2.985,-1.169,1.281,0.0000000,0.0000000,0.850,606.108,4.950,0
2024-11-18T17:34:02.078633,-2.983,-1.168,1.279,0.0000000,0.0000000,0.769,606.071,4.929,0
2024-11-18T17:34:02.189330,-2.981,-1.166,1.277,0.0000000,0.0000000,0.839,606.111,4.940,0
2024-11-18T17:34:02.298351,-2.979,-1.165,1.275,0.0000000,0.0000000,0.753,606.113,4.919,0
2024-11-18T17:34:02.409413,-2.976,-1.163,1.273,0.0000000,0.0000000,0.773,606.138,4.919,0
2024-11-18T17:34:02.518703,-2.974,-1.162,1.271,0.0000000,0.0000000,0.786,606.138,4.929,0
2024-11-18T17:34:02.628369,-2.972,-1.161,1.269,0.0000000,0.0000000,0.756,606.130,4.919,0
2024-11-18T17:34:02.738315,-2.970,-1.159,1.267,0.0000000,0.0000000,0.786,606.129,4.919,0
2024-11-18T17:34:02.848986,-2.968,-1.158,1.265,0.0000000,0.0000000,0.773,606.144,4.919,0
2024-11-18T17:34:02.959161,-2.966,-1.156,1.263,0.0000000,0.0000000,0.753,606.147,4.919,0
2024-11-18T17:34:03.068701,-2.964,-1.155,1.261,0.0000000,0.0000000,0.753,606.144,4.909,0
2024-11-18T17:34:03.178085,-2.962,-1.153,1.259,0.0000000,0.0000000,0.792,606.133,4.919,0
2024-11-18T17:34:03.288759,-2.960,-1.152,1.257,0.0000000,0.0000000,0.820,606.082,4.940,0
2024-11-18T17:34:03.399447,-2.958,-1.151,1.255,0.0000000,0.0000000,0.743,606.085,4.940,0
2024-11-18T17:34:03.508471,-2.956,-1.149,1.253,0.0000000,0.0000000,0.836,606.086,4.940,0
2024-11-18T17:34:03.618753,-2.954,-1.148,1.250,0.0000000,0.0000000,0.817,606.088,4.929,0
2024-11-18T17:34:03.728580,-2.952,-1.146,1.249,0.0000000,0.0000000,0.850,606.056,4.940,0
2024-11-18T17:34:03.838752,-2.949,-1.145,1.246,0.0000000,0.0000000,0.850,606.087,4.950,0
2024-11-18T17:34:03.947819,-2.948,-1.143,1.245,0.0000000,0.0000000,0.765,606.119,4.929,0
2024-11-18T17:34:04.058541,-2.946,-1.142,1.243,0.0000000,0.0000000,0.738,606.128,4.919,0
2024-11-18T17:34:04.168842,-2.945,-1.140,1.242,0.0000000,0.0000000,0.737,606.118,4.929,0
2024-11-18T17:34:04.278739,-2.943,-1.139,1.240,0.0000000,0.0000000,0.805,606.115,4.919,0
2024-11-18T17:34:04.388212,-2.941,-1.137,1.238,0.0000000,0.0000000,0.715,606.122,4.919,0
2024-11-18T17:34:04.498540,-2.939,-1.136,1.236,0.0000000,0.0000000,0.820,606.121,4.919,0
2024-11-18T17:34:04.608039,-2.937,-1.135,1.234,0.0000000,0.0000000,0.769,606.090,4.929,0
2024-11-18T17:34:04.718654,-2.935,-1.133,1.232,0.0000000,0.0000000,0.874,606.106,4.919,0
2024-11-18T17:34:04.829597,-2.933,-1.132,1.230,0.0000000,0.0000000,0.773,606.091,4.909,0
2024-11-18T17:34:04.939208,-2.931,-1.130,1.228,0.0000000,0.0000000,0.722,606.148,4.919,0
2024-11-18T17:34:05.048704,-2.929,-1.129,1.226,0.0000000,0.0000000,0.850,606.135,4.929,0
2024-11-18T17:34:05.158607,-2.927,-1.127,1.225,0.0000000,0.0000000,0.753,606.171,4.919,0
2024-11-18T17:34:05.269274,-2.926,-1.126,1.223,0.0000000,0.0000000,0.786,606.172,4.919,0
2024-11-18T17:34:05.378579,-2.924,-1.124,1.221,0.0000000,0.0000000,0.786,606.135,4.940,0
2024-11-18T17:34:05.488225,-2.922,-1.123,1.219,0.0000000,0.0000000,0.756,606.132,4.919,0
2024-11-18T17:34:05.597812,-2.920,-1.121,1.217,0.0000000,0.0000000,0.850,606.170,4.940,0
2024-11-18T17:34:05.708579,-2.918,-1.120,1.216,0.0000000,0.0000000,0.786,606.144,4.940,0
2024-11-18T17:34:05.818601,-2.916,-1.118,1.214,0.0000000,0.0000000,0.805,606.144,4.940,0
2024-11-18T17:34:05.928682,-2.915,-1.117,1.212,0.0000000,0.0000000,0.850,606.187,4.950,0
2024-11-18T17:34:06.038534,-2.913,-1.115,1.210,0.0000000,0.0000000,0.776,606.158,4.950,0
2024-11-18T17:34:06.148626,-2.911,-1.114,1.209,0.0000000,0.0000000,0.817,606.158,4.950,0
2024-11-18T17:34:06.258510,-2.909,-1.112,1.207,0.0000000,0.0000000,0.839,606.185,4.940,0
2024-11-18T17:34:06.368917,-2.908,-1.111,1.205,0.0000000,0.0000000,0.753,606.183,4.929,0
2024-11-18T17:34:06.478669,-2.906,-1.109,1.204,0.0000000,0.0000000,0.753,606.148,4.929,0
2024-11-18T17:34:06.589791,-2.904,-1.108,1.202,0.0000000,0.0000000,0.753,606.100,4.919,0
2024-11-18T17:34:06.698659,-2.902,-1.106,1.200,0.0000000,0.0000000,0.805,606.110,4.929,0
2024-11-18T17:34:06.809086,-2.901,-1.105,1.199,0.0000000,0.0000000,0.786,606.100,4.929,0
2024-11-18T17:34:06.918522,-2.899,-1.103,1.197,0.0000000,0.0000000,0.820,606.114,4.929,0
2024-11-18T17:34:07.029383,-2.897,-1.102,1.195,0.0000000,0.0000000,0.805,606.173,4.929,0
2024-11-18T17:34:07.139614,-2.896,-1.100,1.194,0.0000000,0.0000000,0.805,606.143,4.919,0
2024-11-18T17:34:07.247790,-2.894,-1.098,1.192,0.0000000,0.0000000,0.820,606.147,4.919,0
2024-11-18T17:34:07.357969,-2.892,-1.097,1.191,0.0000000,0.0000000,0.786,606.135,4.929,0
2024-11-18T17:34:07.468519,-2.891,-1.095,1.189,0.0000000,0.0000000,0.827,606.093,4.919,0
2024-11-18T17:34:07.579150,-2.889,-1.094,1.188,0.0000000,0.0000000,0.722,606.119,4.929,0
2024-11-18T17:34:07.688246,-2.888,-1.092,1.186,0.0000000,0.0000000,0.850,606.107,4.940,0
2024-11-18T17:34:07.798579,-2.886,-1.091,1.185,0.0000000,0.0000000,0.805,606.090,4.940,0
2024-11-18T17:34:07.908494,-2.884,-1.089,1.183,0.0000000,0.0000000,0.773,606.056,4.940,0
2024-11-18T17:34:08.018491,-2.883,-1.087,1.182,0.0000000,0.0000000,0.776,606.066,4.940,0
2024-11-18T17:34:08.128764,-2.881,-1.086,1.180,0.0000000,0.0000000,0.805,606.031,4.940,0
2024-11-18T17:34:08.238946,-2.880,-1.084,1.179,0.0000000,0.0000000,0.805,606.007,4.940,0
2024-11-18T17:34:08.348506,-2.878,-1.083,1.178,0.0000000,0.0000000,0.850,606.018,4.919,0
2024-11-18T17:34:08.458024,-2.877,-1.081,1.176,0.0000000,0.0000000,0.836,606.027,4.940,0
2024-11-18T17:34:08.569132,-2.876,-1.080,1.175,0.0000000,0.0000000,0.839,606.067,4.909,0
2024-11-18T17:34:08.680241,-2.874,-1.078,1.173,0.0000000,0.0000000,0.786,606.081,4.919,0
2024-11-18T17:34:08.788888,-2.873,-1.076,1.172,0.0000000,0.0000000,0.820,606.077,4.919,0
2024-11-18T17:34:08.899035,-2.871,-1.075,1.170,0.0000000,0.0000000,0.817,606.087,4.909,0
2024-11-18T17:34:09.008593,-2.870,-1.073,1.169,0.0000000,0.0000000,0.786,606.062,4.929,0
2024-11-18T17:34:09.118788,-2.868,-1.072,1.168,0.0000000,0.0000000,0.786,606.064,4.929,0
2024-11-18T17:34:09.228511,-2.867,-1.070,1.166,0.0000000,0.0000000,0.786,606.024,4.919,0
2024-11-18T17:34:09.338466,-2.865,-1.069,1.165,0.0000000,0.0000000,0.769,606.006,4.940,0
2024-11-18T17:34:09.448631,-2.864,-1.067,1.164,0.0000000,0.0000000,0.786,606.023,4.940,0
2024-11-18T17:34:09.559082,-2.863,-1.066,1.162,0.0000000,0.0000000,0.850,606.018,4.940,0
2024-11-18T17:34:09.668516,-2.861,-1.064,1.161,0.0000000,0.0000000,0.820,606.031,4.929,0
2024-11-18T17:34:09.778490,-2.860,-1.062,1.160,0.0000000,0.0000000,0.839,605.995,4.940,0
2024-11-18T17:34:09.888118,-2.858,-1.061,1.158,0.0000000,0.0000000,0.850,605.997,4.929,0
2024-11-18T17:34:09.998742,-2.857,-1.059,1.157,0.0000000,0.0000000,0.805,606.001,4.919,0
2024-11-18T17:34:10.108752,-2.855,-1.058,1.155,0.0000000,0.0000000,0.769,606.003,4.940,0
2024-11-18T17:34:10.218139,-2.854,-1.056,1.154,0.0000000,0.0000000,0.836,605.967,4.929,0
2024-11-18T17:34:10.328390,-2.852,-1.054,1.153,0.0000000,0.0000000,0.889,605.954,4.929,0
2024-11-18T17:34:10.438354,-2.851,-1.053,1.151,0.0000000,0.0000000,0.786,605.979,4.919,0
2024-11-18T17:34:10.549394,-2.850,-1.051,1.150,0.0000000,0.0000000,0.817,605.939,4.919,0
2024-11-18T17:34:10.658933,-2.848,-1.050,1.149,0.0000000,0.0000000,0.817,605.887,4.929,0
2024-11-18T17:34:10.769096,-2.847,-1.048,1.148,0.0000000,0.0000000,0.756,605.876,4.919,0
2024-11-18T17:34:10.878832,-2.846,-1.046,1.146,0.0000000,0.0000000,0.804,605.853,4.919,0
2024-11-18T17:34:10.987777,-2.845,-1.045,1.145,0.0000000,0.0000000,0.805,605.861,4.919,0
2024-11-18T17:34:11.098039,-2.843,-1.043,1.144,0.0000000,0.0000000,0.786,605.883,4.929,0
2024-11-18T17:34:11.208147,-2.842,-1.042,1.143,0.0000000,0.0000000,0.805,605.875,4.929,0
2024-11-18T17:34:11.318348,-2.840,-1.040,1.141,0.0000000,0.0000000,0.786,605.874,4.909,0
2024-11-18T17:34:11.427799,-2.839,-1.038,1.140,0.0000000,0.0000000,0.753,605.856,4.940,0
2024-11-18T17:34:11.538391,-2.838,-1.037,1.139,0.0000000,0.0000000,0.817,605.866,4.940,0
2024-11-18T17:34:11.648196,-2.836,-1.035,1.137,0.0000000,0.0000000,0.756,605.898,4.940,0
2024-11-18T17:34:11.757597,-2.835,-1.034,1.136,0.0000000,0.0000000,0.769,605.908,4.929,0
2024-11-18T17:34:11.868499,-2.834,-1.032,1.135,0.0000000,0.0000000,0.786,605.890,4.940,0
2024-11-18T17:34:11.978526,-2.832,-1.030,1.134,0.0000000,0.0000000,0.820,605.853,4.919,0
2024-11-18T17:34:12.088295,-2.831,-1.029,1.133,0.0000000,0.0000000,0.820,605.858,4.940,0
2024-11-18T17:34:12.198683,-2.830,-1.027,1.131,0.0000000,0.0000000,0.753,605.854,4.929,0
2024-11-18T17:34:12.308553,-2.829,-1.026,1.130,0.0000000,0.0000000,0.786,605.829,4.919,0
2024-11-18T17:34:12.418520,-2.827,-1.024,1.129,0.0000000,0.0000000,0.805,605.812,4.929,0
2024-11-18T17:34:12.528769,-2.826,-1.022,1.128,0.0000000,0.0000000,0.820,605.827,4.919,0
2024-11-18T17:34:12.638346,-2.825,-1.021,1.127,0.0000000,0.0000000,0.792,605.805,4.929,0
2024-11-18T17:34:12.748531,-2.824,-1.019,1.125,0.0000000,0.0000000,0.776,605.788,4.929,0
2024-11-18T17:34:12.858920,-2.822,-1.018,1.124,0.0000000,0.0000000,0.817,605.793,4.919,0
2024-11-18T17:34:12.968563,-2.821,-1.016,1.123,0.0000000,0.0000000,0.805,605.814,4.919,0
2024-11-18T17:34:13.079496,-2.820,-1.014,1.122,0.0000000,0.0000000,0.786,605.838,4.929,0
2024-11-18T17:34:13.188090,-2.819,-1.013,1.121,0.0000000,0.0000000,0.786,605.842,4.929,0
2024-11-18T17:34:13.298419,-2.818,-1.011,1.120,0.0000000,0.0000000,0.773,605.814,4.929,0
2024-11-18T17:34:13.408234,-2.816,-1.009,1.119,0.0000000,0.0000000,0.722,605.807,4.940,0
2024-11-18T17:34:13.518545,-2.815,-1.008,1.117,0.0000000,0.0000000,0.722,605.832,4.940,0
2024-11-18T17:34:13.628419,-2.814,-1.006,1.116,0.0000000,0.0000000,0.805,605.831,4.929,0
2024-11-18T17:34:13.738623,-2.813,-1.004,1.115,0.0000000,0.0000000,0.786,605.831,4.909,0
2024-11-18T17:34:13.849114,-2.812,-1.003,1.114,0.0000000,0.0000000,0.786,605.835,4.940,0
2024-11-18T17:34:13.958811,-2.810,-1.001,1.113,0.0000000,0.0000000,0.776,605.784,4.919,0
2024-11-18T17:34:14.068356,-2.809,-1.000,1.112,0.0000000,0.0000000,0.753,605.828,4.950,0
2024-11-18T17:34:14.177686,-2.808,-0.998,1.111,0.0000000,0.0000000,0.836,605.840,4.940,0
2024-11-18T17:34:14.288326,-2.807,-0.996,1.110,0.0000000,0.0000000,0.817,605.860,4.919,0
2024-11-18T17:34:14.397555,-2.806,-0.995,1.109,0.0000000,0.0000000,0.805,605.860,4.929,0
2024-11-18T17:34:14.508191,-2.805,-0.993,1.107,0.0000000,0.0000000,0.811,605.833,4.919,0
2024-11-18T17:34:14.617728,-2.803,-0.991,1.106,0.0000000,0.0000000,0.756,605.806,4.929,0
2024-11-18T17:34:14.729306,-2.802,-0.990,1.105,0.0000000,0.0000000,0.847,605.800,4.929,0
2024-11-18T17:34:14.839606,-2.801,-0.988,1.104,0.0000000,0.0000000,0.817,605.846,4.919,0
2024-11-18T17:34:14.948606,-2.800,-0.986,1.103,0.0000000,0.0000000,0.850,605.871,4.929,0
2024-11-18T17:34:15.059084,-2.799,-0.985,1.102,0.0000000,0.0000000,0.786,605.863,4.919,0
2024-11-18T17:34:15.168633,-2.798,-0.983,1.101,0.0000000,0.0000000,0.786,605.844,4.919,0
2024-11-18T17:34:15.278843,-2.797,-0.982,1.100,0.0000000,0.0000000,0.850,605.842,4.929,0
2024-11-18T17:34:15.389235,-2.796,-0.980,1.099,0.0000000,0.0000000,0.753,605.819,4.929,0
2024-11-18T17:34:15.498689,-2.795,-0.978,1.098,0.0000000,0.0000000,0.753,605.805,4.940,0
2024-11-18T17:34:15.608075,-2.794,-0.977,1.097,0.0000000,0.0000000,0.827,605.786,4.940,0
2024-11-18T17:34:15.718479,-2.793,-0.975,1.096,0.0000000,0.0000000,0.786,605.796,4.940,0
2024-11-18T17:34:15.827879,-2.791,-0.973,1.095,0.0000000,0.0000000,0.850,605.826,4.909,0
2024-11-18T17:34:15.938401,-2.790,-0.972,1.094,0.0000000,0.0000000,0.792,605.869,4.919,0
2024-11-18T17:34:16.048883,-2.789,-0.970,1.093,0.0000000,0.0000000,0.817,605.927,4.940,0
2024-11-18T17:34:16.158270,-2.788,-0.968,1.092,0.0000000,0.0000000,0.820,605.947,4.940,0
2024-11-18T17:34:16.267846,-2.787,-0.967,1.091,0.0000000,0.0000000,0.786,605.976,4.940,0
2024-11-18T17:34:16.377392,-2.786,-0.965,1.090,0.0000000,0.0000000,0.786,605.990,4.919,0
2024-11-18T17:34:16.488903,-2.785,-0.963,1.089,0.0000000,0.0000000,0.786,605.983,4.919,0
2024-11-18T17:34:16.598688,-2.784,-0.962,1.088,0.0000000,0.0000000,0.786,605.997,4.919,0
2024-11-18T17:34:16.707994,-2.783,-0.960,1.087,0.0000000,0.0000000,0.801,606.018,4.929,0
2024-11-18T17:34:16.819465,-2.782,-0.959,1.086,0.0000000,0.0000000,0.786,606.002,4.929,0
2024-11-18T17:34:16.929052,-2.781,-0.957,1.085,0.0000000,0.0000000,0.820,606.018,4.909,0
2024-11-18T17:34:17.039786,-2.780,-0.955,1.084,0.0000000,0.0000000,0.753,605.987,4.929,0
2024-11-18T17:34:17.148794,-2.779,-0.953,1.083,0.0000000,0.0000000,0.773,606.003,4.919,0
2024-11-18T17:34:17.258572,-2.778,-0.952,1.082,0.0000000,0.0000000,0.817,605.983,4.919,0
2024-11-18T17:34:17.368538,-2.777,-0.950,1.082,0.0000000,0.0000000,0.786,605.998,4.909,0
2024-11-18T17:34:17.478852,-2.776,-0.948,1.081,0.0000000,0.0000000,0.820,605.998,4.940,0
2024-11-18T17:34:17.588663,-2.775,-0.947,1.080,0.0000000,0.0000000,0.805,605.994,4.929,0
2024-11-18T17:34:17.698725,-2.774,-0.945,1.079,0.0000000,0.0000000,0.786,605.946,4.940,0
2024-11-18T17:34:17.808891,-2.773,-0.944,1.078,0.0000000,0.0000000,0.839,605.920,4.929,0
2024-11-18T17:34:17.917708,-2.772,-0.942,1.077,0.0000000,0.0000000,0.786,605.940,4.929,0
2024-11-18T17:34:18.028557,-2.771,-0.940,1.076,0.0000000,0.0000000,0.820,605.952,4.940,0
2024-11-18T17:34:18.138364,-2.770,-0.939,1.075,0.0000000,0.0000000,0.773,605.963,4.940,0
2024-11-18T17:34:18.248645,-2.769,-0.937,1.074,0.0000000,0.0000000,0.773,605.967,4.940,0
2024-11-18T17:34:18.358087,-2.768,-0.935,1.073,0.0000000,0.0000000,0.773,605.930,4.919,0
2024-11-18T17:34:18.468794,-2.767,-0.933,1.072,0.0000000,0.0000000,0.817,605.929,4.919,0
2024-11-18T17:34:18.577918,-2.766,-0.932,1.072,0.0000000,0.0000000,0.786,605.967,4.919,0
2024-11-18T17:34:18.688402,-2.765,-0.930,1.071,0.0000000,0.0000000,0.773,605.910,4.919,0
2024-11-18T17:34:18.799319,-2.764,-0.928,1.070,0.0000000,0.0000000,0.743,605.876,4.919,0
2024-11-18T17:34:18.908343,-2.763,-0.927,1.069,0.0000000,0.0000000,0.743,605.949,4.929,0
2024-11-18T17:34:19.019712,-2.762,-0.925,1.068,0.0000000,0.0000000,0.753,605.986,4.919,0
2024-11-18T17:34:19.127890,-2.761,-0.923,1.067,0.0000000,0.0000000,0.834,606.001,4.929,0
2024-11-18T17:34:19.238574,-2.761,-0.922,1.066,0.0000000,0.0000000,0.786,605.983,4.919,0
2024-11-18T17:34:19.348130,-2.760,-0.920,1.065,0.0000000,0.0000000,0.753,605.982,4.940,0
2024-11-18T17:34:19.458816,-2.759,-0.918,1.065,0.0000000,0.0000000,0.856,606.014,4.940,0
2024-11-18T17:34:19.568757,-2.758,-0.917,1.064,0.0000000,0.0000000,0.786,605.992,4.909,0
2024-11-18T17:34:19.677923,-2.757,-0.915,1.063,0.0000000,0.0000000,0.805,606.013,4.929,0
2024-11-18T17:34:19.788872,-2.756,-0.913,1.062,0.0000000,0.0000000,0.817,606.058,4.940,0
2024-11-18T17:34:19.898032,-2.755,-0.912,1.061,0.0000000,0.0000000,0.820,606.065,4.940,0
2024-11-18T17:34:20.008499,-2.754,-0.910,1.060,0.0000000,0.0000000,0.786,606.059,4.940,0
2024-11-18T17:34:20.117996,-2.753,-0.908,1.059,0.0000000,0.0000000,0.773,606.110,4.940,0
2024-11-18T17:34:20.228953,-2.752,-0.907,1.059,0.0000000,0.0000000,0.857,606.109,4.940,0
2024-11-18T17:34:20.339663,-2.751,-0.905,1.058,0.0000000,0.0000000,0.820,606.116,4.919,0
2024-11-18T17:34:20.448633,-2.750,-0.903,1.057,0.0000000,0.0000000,0.820,606.133,4.919,0
2024-11-18T17:34:20.558726,-2.749,-0.901,1.056,0.0000000,0.0000000,0.792,606.124,4.929,0
2024-11-18T17:34:20.668386,-2.749,-0.900,1.055,0.0000000,0.0000000,0.786,606.138,4.919,0
2024-11-18T17:34:20.779238,-2.748,-0.898,1.055,0.0000000,0.0000000,0.786,606.135,4.929,0
2024-11-18T17:34:20.888343,-2.747,-0.896,1.054,0.0000000,0.0000000,0.722,606.171,4.929,0
2024-11-18T17:34:20.999223,-2.746,-0.895,1.053,0.0000000,0.0000000,0.756,606.175,4.919,0
2024-11-18T17:34:21.109195,-2.745,-0.893,1.052,0.0000000,0.0000000,0.805,606.186,4.909,0
2024-11-18T17:34:21.218616,-2.744,-0.891,1.051,0.0000000,0.0000000,0.868,606.093,4.929,0
2024-11-18T17:34:21.329483,-2.743,-0.890,1.051,0.0000000,0.0000000,0.776,606.085,4.950,0
2024-11-18T17:34:21.438641,-2.742,-0.888,1.050,0.0000000,0.0000000,0.805,606.080,4.940,0
2024-11-18T17:34:21.548264,-2.742,-0.886,1.049,0.0000000,0.0000000,0.753,606.078,4.940,0
2024-11-18T17:34:21.658366,-2.741,-0.885,1.048,0.0000000,0.0000000,0.817,606.112,4.950,0
2024-11-18T17:34:21.768829,-2.740,-0.883,1.047,0.0000000,0.0000000,0.827,606.105,4.950,0
2024-11-18T17:34:21.878557,-2.739,-0.881,1.047,0.0000000,0.0000000,0.743,606.120,4.909,0
2024-11-18T17:34:21.989649,-2.738,-0.879,1.046,0.0000000,0.0000000,0.689,606.149,4.940,0
2024-11-18T17:34:22.098615,-2.737,-0.878,1.045,0.0000000,0.0000000,0.868,606.185,4.940,0
2024-11-18T17:34:22.209195,-2.737,-0.876,1.044,0.0000000,0.0000000,0.805,606.165,4.940,0
2024-11-18T17:34:22.318426,-2.736,-0.874,1.044,0.0000000,0.0000000,0.769,606.174,4.919,0
2024-11-18T17:34:22.427718,-2.735,-0.873,1.043,0.0000000,0.0000000,0.786,606.196,4.929,0
2024-11-18T17:34:22.538691,-2.734,-0.871,1.042,0.0000000,0.0000000,0.786,606.179,4.919,0
2024-11-18T17:34:22.647736,-2.733,-0.869,1.041,0.0000000,0.0000000,0.773,606.196,4.929,0
2024-11-18T17:34:22.758722,-2.733,-0.867,1.041,0.0000000,0.0000000,0.839,606.138,4.919,0
2024-11-18T17:34:22.868543,-2.732,-0.866,1.040,0.0000000,0.0000000,0.773,606.204,4.929,0
2024-11-18T17:34:22.980273,-2.731,-0.864,1.039,0.0000000,0.0000000,0.756,606.198,4.929,0
2024-11-18T17:34:23.089778,-2.730,-0.862,1.038,0.0000000,0.0000000,0.805,606.167,4.919,0
2024-11-18T17:34:23.197820,-2.729,-0.861,1.038,0.0000000,0.0000000,0.753,606.212,4.929,0
2024-11-18T17:34:23.307490,-2.729,-0.859,1.037,0.0000000,0.0000000,0.722,606.187,4.940,0
2024-11-18T17:34:23.417627,-2.728,-0.857,1.036,0.0000000,0.0000000,0.756,606.176,4.940,0
2024-11-18T17:34:23.528287,-2.727,-0.855,1.036,0.0000000,0.0000000,0.735,606.199,4.940,0
2024-11-18T17:34:23.638102,-2.726,-0.854,1.035,0.0000000,0.0000000,0.811,606.205,4.940,0
2024-11-18T17:34:23.748618,-2.725,-0.852,1.034,0.0000000,0.0000000,0.820,606.168,4.940,0
2024-11-18T17:34:23.858738,-2.724,-0.850,1.033,0.0000000,0.0000000,0.801,606.173,4.940,0
2024-11-18T17:34:23.968325,-2.724,-0.849,1.033,0.0000000,0.0000000,0.722,606.211,4.940,0
2024-11-18T17:34:24.078317,-2.723,-0.847,1.032,0.0000000,0.0000000,0.773,606.218,4.909,0
2024-11-18T17:34:24.188855,-2.722,-0.845,1.031,0.0000000,0.0000000,0.840,606.219,4.940,0
2024-11-18T17:34:24.298390,-2.721,-0.843,1.031,0.0000000,0.0000000,0.817,606.229,4.919,0
2024-11-18T17:34:24.408209,-2.720,-0.842,1.030,0.0000000,0.0000000,0.805,606.202,4.940,0
2024-11-18T17:34:24.518658,-2.720,-0.840,1.029,0.0000000,0.0000000,0.839,606.191,4.919,0
2024-11-18T17:34:24.628453,-2.719,-0.838,1.029,0.0000000,0.0000000,0.817,606.171,4.929,0
2024-11-18T17:34:24.738246,-2.718,-0.837,1.028,0.0000000,0.0000000,0.804,606.136,4.919,0
2024-11-18T17:34:24.848523,-2.717,-0.835,1.027,0.0000000,0.0000000,0.792,606.175,4.919,0
2024-11-18T17:34:24.958463,-2.717,-0.833,1.027,0.0000000,0.0000000,0.769,606.195,4.919,0
2024-11-18T17:34:25.068910,-2.716,-0.831,1.026,0.0000000,0.0000000,0.805,606.187,4.929,0
2024-11-18T17:34:25.179707,-2.715,-0.830,1.025,0.0000000,0.0000000,0.722,606.209,4.919,0
2024-11-18T17:34:25.288714,-2.714,-0.828,1.025,0.0000000,0.0000000,0.773,606.213,4.940,0
2024-11-18T17:34:25.398739,-2.714,-0.826,1.024,0.0000000,0.0000000,0.805,606.195,4.929,0
2024-11-18T17:34:25.508749,-2.713,-0.824,1.023,0.0000000,0.0000000,0.805,606.163,4.940,0
2024-11-18T17:34:25.617960,-2.712,-0.823,1.023,0.0000000,0.0000000,0.756,606.201,4.940,0
2024-11-18T17:34:25.728212,-2.711,-0.821,1.022,0.0000000,0.0000000,0.820,606.200,4.929,0
2024-11-18T17:34:25.838637,-2.711,-0.819,1.021,0.0000000,0.0000000,0.756,606.201,4.929,0
2024-11-18T17:34:25.947846,-2.710,-0.818,1.021,0.0000000,0.0000000,0.756,606.219,4.929,0
2024-11-18T17:34:26.058788,-2.709,-0.816,1.020,0.0000000,0.0000000,0.756,606.169,4.940,0
2024-11-18T17:34:26.168695,-2.709,-0.814,1.019,0.0000000,0.0000000,0.850,606.154,4.940,0
2024-11-18T17:34:26.278432,-2.708,-0.812,1.019,0.0000000,0.0000000,0.776,606.212,4.929,0
2024-11-18T17:34:26.388227,-2.707,-0.811,1.018,0.0000000,0.0000000,0.817,606.214,4.929,0
2024-11-18T17:34:26.498948,-2.706,-0.809,1.018,0.0000000,0.0000000,0.756,606.201,4.919,0
2024-11-18T17:34:26.607953,-2.706,-0.807,1.017,0.0000000,0.0000000,0.805,606.223,4.919,0
2024-11-18T17:34:26.718749,-2.705,-0.805,1.016,0.0000000,0.0000000,0.786,606.209,4.919,0
2024-11-18T17:34:26.828625,-2.704,-0.804,1.016,0.0000000,0.0000000,0.805,606.159,4.929,0
2024-11-18T17:34:26.939205,-2.704,-0.802,1.015,0.0000000,0.0000000,0.753,606.158,4.929,0
2024-11-18T17:34:27.048571,-2.703,-0.800,1.014,0.0000000,0.0000000,0.874,606.149,4.919,0
2024-11-18T17:34:27.158627,-2.702,-0.798,1.014,0.0000000,0.0000000,0.786,606.132,4.909,0
2024-11-18T17:34:27.267555,-2.701,-0.797,1.013,0.0000000,0.0000000,0.735,606.157,4.919,0
2024-11-18T17:34:27.377738,-2.701,-0.795,1.012,0.0000000,0.0000000,0.801,606.150,4.940,0
2024-11-18T17:34:27.488346,-2.700,-0.793,1.012,0.0000000,0.0000000,0.850,606.150,4.929,0
2024-11-18T17:34:27.598578,-2.699,-0.791,1.011,0.0000000,0.0000000,0.786,606.158,4.950,0
2024-11-18T17:34:27.708441,-2.699,-0.790,1.011,0.0000000,0.0000000,0.827,606.161,4.940,0
2024-11-18T17:34:27.818316,-2.698,-0.788,1.010,0.0000000,0.0000000,0.753,606.150,4.950,0
2024-11-18T17:34:27.927801,-2.697,-0.786,1.010,0.0000000,0.0000000,0.805,606.081,4.919,0
2024-11-18T17:34:28.038524,-2.697,-0.784,1.009,0.0000000,0.0000000,0.801,606.069,4.940,0
2024-11-18T17:34:28.149030,-2.696,-0.783,1.008,0.0000000,0.0000000,0.786,606.071,4.929,0
2024-11-18T17:34:28.258748,-2.695,-0.781,1.008,0.0000000,0.0000000,0.792,606.051,4.940,0
2024-11-18T17:34:28.368532,-2.695,-0.779,1.007,0.0000000,0.0000000,0.820,606.051,4.919,0
2024-11-18T17:34:28.479101,-2.694,-0.777,1.007,0.0000000,0.0000000,0.811,606.018,4.919,0
2024-11-18T17:34:28.587370,-2.693,-0.776,1.006,0.0000000,0.0000000,0.804,606.027,4.919,0
2024-11-18T17:34:28.698667,-2.693,-0.774,1.006,0.0000000,0.0000000,0.753,606.011,4.909,0
2024-11-18T17:34:28.808961,-2.692,-0.772,1.005,0.0000000,0.0000000,0.712,606.002,4.919,0
2024-11-18T17:34:28.918401,-2.691,-0.770,1.005,0.0000000,0.0000000,0.820,606.007,4.929,0
2024-11-18T17:34:29.030120,-2.691,-0.769,1.004,0.0000000,0.0000000,0.703,606.007,4.940,0
2024-11-18T17:34:29.138857,-2.690,-0.767,1.003,0.0000000,0.0000000,0.786,606.022,4.929,0
2024-11-18T17:34:29.248543,-2.690,-0.765,1.003,0.0000000,0.0000000,0.786,606.016,4.888,0
2024-11-18T17:34:29.358613,-2.689,-0.764,1.003,0.0000000,0.0000000,0.805,605.976,4.837,0
2024-11-18T17:34:29.468983,-2.689,-0.762,1.002,0.0000000,0.0000000,0.850,605.999,4.909,0
2024-11-18T17:34:29.578574,-2.688,-0.760,1.002,0.0000000,0.0000000,0.756,606.026,4.867,0
2024-11-18T17:34:29.688166,-2.687,-0.758,1.001,0.0000000,0.0000000,0.792,606.018,4.733,0
2024-11-18T17:34:29.797500,-2.687,-0.757,1.001,0.0000000,0.0000000,0.834,606.006,4.785,0
2024-11-18T17:34:29.907966,-2.686,-0.755,1.000,0.0000000,0.0000000,0.773,605.983,4.733,0
2024-11-18T17:34:30.018745,-2.685,-0.753,0.999,0.0000000,0.0000000,0.792,605.970,4.857,0
2024-11-18T17:34:30.128662,-2.684,-0.751,0.999,0.0000000,0.0000000,0.805,605.928,4.929,0
2024-11-18T17:41:02.129716,2.822,-1.327,1.748,0.0000000,0.0000000,0.817,603.568,4.929,0
2024-11-18T17:41:02.238614,2.828,-1.327,1.743,0.0000000,0.0000000,0.792,603.537,4.940,0
2024-11-18T17:41:02.347174,2.833,-1.326,1.738,0.0000000,0.0000000,0.786,603.544,4.940,0
2024-11-18T17:41:02.455038,2.838,-1.325,1.733,0.0000000,0.0000000,0.769,603.562,4.929,0
2024-11-18T17:41:02.564387,2.843,-1.324,1.727,0.0000000,0.0000000,0.786,603.512,4.940,0
2024-11-18T17:41:02.680431,2.849,-1.323,1.722,0.0000000,0.0000000,0.805,603.505,4.940,0
2024-11-18T17:41:02.788557,2.854,-1.322,1.717,0.0000000,0.0000000,0.805,603.513,4.929,0
2024-11-18T17:41:02.896970,2.859,-1.321,1.712,0.0000000,0.0000000,0.817,603.582,4.940,0
2024-11-18T17:41:03.007763,2.864,-1.320,1.707,0.0000000,0.0000000,0.792,603.653,4.929,0
2024-11-18T17:41:03.114504,2.869,-1.319,1.702,0.0000000,0.0000000,0.817,603.677,4.919,0
2024-11-18T17:41:03.230159,2.874,-1.319,1.697,0.0000000,0.0000000,0.850,603.702,4.919,0
2024-11-18T17:41:03.339003,2.879,-1.318,1.692,0.0000000,0.0000000,0.839,603.749,4.909,0
2024-11-18T17:41:03.447290,2.884,-1.317,1.687,0.0000000,0.0000000,0.756,603.767,4.909,0
2024-11-18T17:41:03.561537,2.890,-1.316,1.682,0.0000000,0.0000000,0.792,603.812,4.929,0
2024-11-18T17:41:03.668693,2.894,-1.315,1.677,0.0000000,0.0000000,0.773,603.866,4.919,0
2024-11-18T17:41:03.774679,2.900,-1.314,1.672,0.0000000,0.0000000,0.836,603.878,4.909,0
2024-11-18T17:41:03.890825,2.904,-1.313,1.667,0.0000000,0.0000000,0.839,603.897,4.929,0
2024-11-18T17:41:03.996194,2.909,-1.312,1.662,0.0000000,0.0000000,0.885,603.907,4.929,0
2024-11-18T17:41:04.105257,2.914,-1.311,1.657,0.0000000,0.0000000,0.776,603.936,4.940,0
2024-11-18T17:41:04.219078,2.919,-1.310,1.653,0.0000000,0.0000000,0.805,603.976,4.940,0
2024-11-18T17:41:04.324354,2.924,-1.309,1.648,0.0000000,0.0000000,0.756,604.018,4.940,0
2024-11-18T17:41:04.437626,2.928,-1.308,1.643,0.0000000,0.0000000,0.786,604.014,4.929,0
2024-11-18T17:41:04.548703,2.934,-1.307,1.638,0.0000000,0.0000000,0.820,604.068,4.940,0
2024-11-18T17:41:04.659469,2.938,-1.306,1.634,0.0000000,0.0000000,0.805,604.068,4.950,0
2024-11-18T17:41:04.764952,2.943,-1.305,1.629,0.0000000,0.0000000,0.801,604.029,4.940,0
2024-11-18T17:41:04.874789,2.947,-1.304,1.624,0.0000000,0.0000000,0.833,604.060,4.940,0
2024-11-18T17:41:04.989980,2.952,-1.303,1.620,0.0000000,0.0000000,0.753,604.067,4.940,0
2024-11-18T17:41:05.099032,2.957,-1.302,1.615,0.0000000,0.0000000,0.722,604.083,4.909,0
2024-11-18T17:41:05.208567,2.961,-1.301,1.611,0.0000000,0.0000000,0.868,604.100,4.929,0
2024-11-18T17:41:05.319593,2.966,-1.300,1.606,0.0000000,0.0000000,0.743,604.069,4.909,0
2024-11-18T17:41:05.429639,2.970,-1.299,1.602,0.0000000,0.0000000,0.817,604.055,4.919,0
2024-11-18T17:41:05.539443,2.975,-1.298,1.598,0.0000000,0.0000000,0.850,604.050,4.929,0
2024-11-18T17:41:05.649628,2.979,-1.297,1.593,0.0000000,0.0000000,0.811,604.005,4.919,0
2024-11-18T17:41:05.761163,2.984,-1.295,1.589,0.0000000,0.0000000,0.811,604.026,4.919,0
2024-11-18T17:41:05.869697,2.988,-1.294,1.585,0.0000000,0.0000000,0.786,604.054,4.929,0
2024-11-18T17:41:05.979186,2.992,-1.293,1.580,0.0000000,0.0000000,0.786,604.029,4.919,0
2024-11-18T17:41:06.090461,2.997,-1.292,1.576,0.0000000,0.0000000,0.756,604.010,4.940,0
2024-11-18T17:41:06.200132,3.001,-1.291,1.572,0.0000000,0.0000000,0.753,604.031,4.940,0
2024-11-18T17:41:06.310363,3.005,-1.290,1.568,0.0000000,0.0000000,0.817,604.025,4.919,0
2024-11-18T17:41:06.419680,3.009,-1.289,1.563,0.0000000,0.0000000,0.820,604.020,4.940,0
2024-11-18T17:41:06.529216,3.013,-1.288,1.559,0.0000000,0.0000000,0.820,604.042,4.909,0
2024-11-18T17:41:06.640000,3.018,-1.287,1.555,0.0000000,0.0000000,0.776,604.025,4.940,0
2024-11-18T17:41:06.744583,3.022,-1.286,1.551,0.0000000,0.0000000,0.801,603.962,4.940,0
2024-11-18T17:41:06.859955,3.026,-1.285,1.547,0.0000000,0.0000000,0.817,603.969,4.929,0
2024-11-18T17:41:06.970269,3.030,-1.283,1.543,0.0000000,0.0000000,0.792,603.939,4.929,0
2024-11-18T17:41:07.077619,3.033,-1.282,1.540,0.0000000,0.0000000,0.786,603.880,4.929,0
2024-11-18T17:41:07.189633,3.038,-1.281,1.536,0.0000000,0.0000000,0.805,603.892,4.919,0
2024-11-18T17:41:07.297469,3.041,-1.280,1.532,0.0000000,0.0000000,0.850,603.857,4.919,0
2024-11-18T17:41:07.404962,3.045,-1.279,1.528,0.0000000,0.0000000,0.805,603.807,4.919,0
2024-11-18T17:41:07.519259,3.049,-1.278,1.524,0.0000000,0.0000000,0.836,603.793,4.919,0
2024-11-18T17:41:07.630263,3.053,-1.277,1.520,0.0000000,0.0000000,0.817,603.810,4.919,0
2024-11-18T17:41:07.740179,3.057,-1.276,1.517,0.0000000,0.0000000,0.753,603.829,4.909,0
2024-11-18T17:41:07.845712,3.060,-1.274,1.513,0.0000000,0.0000000,0.786,603.841,4.919,0
2024-11-18T17:41:07.959013,3.064,-1.273,1.509,0.0000000,0.0000000,0.769,603.807,4.929,0
2024-11-18T17:41:08.071128,3.068,-1.272,1.506,0.0000000,0.0000000,0.820,603.826,4.940,0
2024-11-18T17:41:08.179738,3.072,-1.271,1.502,0.0000000,0.0000000,0.756,603.834,4.929,0
2024-11-18T17:41:08.288705,3.075,-1.270,1.498,0.0000000,0.0000000,0.756,603.792,4.940,0
2024-11-18T17:41:08.399204,3.079,-1.268,1.495,0.0000000,0.0000000,0.811,603.782,4.940,0
2024-11-18T17:41:08.509874,3.083,-1.267,1.491,0.0000000,0.0000000,0.786,603.775,4.929,0
2024-11-18T17:41:08.619273,3.086,-1.266,1.488,0.0000000,0.0000000,0.850,603.774,4.940,0
2024-11-18T17:41:08.729888,3.090,-1.265,1.484,0.0000000,0.0000000,0.820,603.783,4.929,0
2024-11-18T17:41:08.840147,3.093,-1.264,1.481,0.0000000,0.0000000,0.805,603.802,4.940,0
2024-11-18T17:41:08.946249,3.097,-1.262,1.477,0.0000000,0.0000000,0.868,603.776,4.929,0
2024-11-18T17:41:09.054676,3.100,-1.261,1.474,0.0000000,0.0000000,0.839,603.757,4.940,0
2024-11-18T17:41:09.168431,3.104,-1.260,1.470,0.0000000,0.0000000,0.786,603.767,4.919,0
2024-11-18T17:41:09.278931,3.107,-1.259,1.467,0.0000000,0.0000000,0.786,603.778,4.929,0
2024-11-18T17:41:09.389636,3.111,-1.257,1.463,0.0000000,0.0000000,0.836,603.802,4.919,0
2024-11-18T17:41:09.496466,3.114,-1.256,1.460,0.0000000,0.0000000,0.902,603.851,4.919,0
2024-11-18T17:41:09.609587,3.117,-1.255,1.457,0.0000000,0.0000000,0.773,603.872,4.919,0
2024-11-18T17:41:09.719883,3.121,-1.254,1.454,0.0000000,0.0000000,0.756,603.884,4.909,0
2024-11-18T17:41:09.824600,3.124,-1.253,1.451,0.0000000,0.0000000,0.786,603.861,4.919,0
2024-11-18T17:41:09.939400,3.127,-1.251,1.447,0.0000000,0.0000000,0.753,603.866,4.929,0
2024-11-18T17:41:10.049635,3.131,-1.250,1.444,0.0000000,0.0000000,0.817,603.864,4.919,0
2024-11-18T17:41:10.154737,3.134,-1.249,1.441,0.0000000,0.0000000,0.786,603.886,4.929,0
2024-11-18T17:41:10.264832,3.137,-1.248,1.438,0.0000000,0.0000000,0.786,603.930,4.909,0
2024-11-18T17:41:10.379046,3.140,-1.246,1.435,0.0000000,0.0000000,0.792,603.933,4.940,0
2024-11-18T17:41:10.489553,-3.140,-1.245,1.431,0.0000000,0.0000000,0.833,603.932,4.919,0
2024-11-18T17:41:10.600085,-3.136,-1.244,1.428,0.0000000,0.0000000,0.850,603.919,4.929,0
2024-11-18T17:41:10.706001,-3.133,-1.242,1.425,0.0000000,0.0000000,0.820,603.899,4.940,0
2024-11-18T17:41:10.819574,-3.130,-1.241,1.422,0.0000000,0.0000000,0.836,603.920,4.919,0
2024-11-18T17:41:10.929127,-3.127,-1.240,1.419,0.0000000,0.0000000,0.839,603.956,4.940,0
2024-11-18T17:41:11.038395,-3.124,-1.239,1.416,0.0000000,0.0000000,0.786,603.975,4.929,0
2024-11-18T17:41:11.148291,-3.121,-1.237,1.413,0.0000000,0.0000000,0.753,603.975,4.919,0
2024-11-18T17:41:11.255202,-3.118,-1.236,1.410,0.0000000,0.0000000,0.773,604.011,4.929,0
2024-11-18T17:41:11.369346,-3.115,-1.235,1.407,0.0000000,0.0000000,0.786,604.015,4.919,0
2024-11-18T17:41:11.477869,-3.112,-1.233,1.404,0.0000000,0.0000000,0.820,604.038,4.929,0
2024-11-18T17:41:11.584781,-3.109,-1.232,1.401,0.0000000,0.0000000,0.735,604.037,4.919,0
2024-11-18T17:41:11.694714,-3.106,-1.231,1.398,0.0000000,0.0000000,0.850,604.015,4.919,0
2024-11-18T17:41:11.809600,-3.103,-1.230,1.395,0.0000000,0.0000000,0.874,604.017,4.919,0
2024-11-18T17:41:11.919381,-3.100,-1.228,1.392,0.0000000,0.0000000,0.722,604.034,4.919,0
2024-11-18T17:41:12.027890,-3.097,-1.227,1.390,0.0000000,0.0000000,0.805,604.043,4.929,0
2024-11-18T17:41:12.134361,-3.094,-1.226,1.387,0.0000000,0.0000000,0.889,604.046,4.929,0
2024-11-18T17:41:12.244462,-3.091,-1.224,1.384,0.0000000,0.0000000,0.857,604.048,4.940,0
2024-11-18T17:41:12.354775,-3.088,-1.223,1.381,0.0000000,0.0000000,0.811,604.057,4.940,0
2024-11-18T17:41:12.468979,-3.086,-1.222,1.378,0.0000000,0.0000000,0.850,604.041,4.929,0
2024-11-18T17:41:12.580224,-3.083,-1.220,1.376,0.0000000,0.0000000,0.756,604.024,4.940,0
2024-11-18T17:41:12.686372,-3.080,-1.219,1.373,0.0000000,0.0000000,0.804,604.053,4.940,0
2024-11-18T17:41:12.797849,-3.077,-1.217,1.370,0.0000000,0.0000000,0.786,604.044,4.940,0
2024-11-18T17:41:12.906780,-3.074,-1.216,1.368,0.0000000,0.0000000,0.776,604.063,4.950,0
2024-11-18T17:41:13.015271,-3.072,-1.215,1.365,0.0000000,0.0000000,0.722,604.076,4.929,0
2024-11-18T17:41:13.129387,-3.069,-1.214,1.362,0.0000000,0.0000000,0.786,604.141,4.919,0
2024-11-18T17:41:13.238777,-3.066,-1.212,1.360,0.0000000,0.0000000,0.817,604.180,4.919,0
2024-11-18T17:41:13.345885,-3.064,-1.211,1.357,0.0000000,0.0000000,0.786,604.204,4.919,0
2024-11-18T17:41:13.455030,-3.061,-1.209,1.355,0.0000000,0.0000000,0.786,604.190,4.929,0
2024-11-18T17:41:13.570912,-3.059,-1.208,1.352,0.0000000,0.0000000,0.792,604.161,4.929,0
2024-11-18T17:41:13.680244,-3.056,-1.207,1.350,0.0000000,0.0000000,0.834,604.173,4.919,0
2024-11-18T17:41:13.789386,-3.054,-1.205,1.347,0.0000000,0.0000000,0.817,604.191,4.919,0
2024-11-18T17:41:13.896843,-3.051,-1.204,1.345,0.0000000,0.0000000,0.805,604.192,4.919,0
2024-11-18T17:41:14.004604,-3.048,-1.203,1.342,0.0000000,0.0000000,0.817,604.207,4.919,0
2024-11-18T17:41:14.120708,-3.046,-1.201,1.340,0.0000000,0.0000000,0.820,604.205,4.940,0
2024-11-18T17:41:14.229126,-3.043,-1.200,1.337,0.0000000,0.0000000,0.786,604.188,4.950,0
2024-11-18T17:41:14.337854,-3.041,-1.199,1.335,0.0000000,0.0000000,0.805,604.184,4.950,0
2024-11-18T17:41:14.446897,-3.038,-1.197,1.332,0.0000000,0.0000000,0.786,604.182,4.940,0
2024-11-18T17:41:14.554892,-3.036,-1.196,1.330,0.0000000,0.0000000,0.836,604.169,4.940,0
2024-11-18T17:41:14.664841,-3.033,-1.194,1.327,0.0000000,0.0000000,0.801,604.153,4.940,0
2024-11-18T17:41:14.779652,-3.031,-1.193,1.325,0.0000000,0.0000000,0.817,604.154,4.929,0
2024-11-18T17:41:14.888384,-3.029,-1.192,1.323,0.0000000,0.0000000,0.773,604.178,4.940,0
2024-11-18T17:41:14.996726,-3.026,-1.190,1.320,0.0000000,0.0000000,0.805,604.174,4.940,0
2024-11-18T17:41:15.105089,-3.024,-1.189,1.318,0.0000000,0.0000000,0.776,604.177,4.929,0
2024-11-18T17:41:15.220293,-3.021,-1.188,1.316,0.0000000,0.0000000,0.805,604.169,4.929,0
2024-11-18T17:41:15.329779,-3.019,-1.186,1.313,0.0000000,0.0000000,0.840,604.156,4.929,0
2024-11-18T17:41:15.438119,-3.017,-1.185,1.311,0.0000000,0.0000000,0.820,604.154,4.919,0
2024-11-18T17:41:15.546461,-3.014,-1.183,1.309,0.0000000,0.0000000,0.839,604.143,4.919,0
2024-11-18T17:41:15.655363,-3.012,-1.182,1.307,0.0000000,0.0000000,0.839,604.179,4.919,0
2024-11-18T17:41:15.764862,-3.010,-1.181,1.304,0.0000000,0.0000000,0.805,604.200,4.909,0
2024-11-18T17:41:15.879884,-3.007,-1.179,1.302,0.0000000,0.0000000,0.817,604.209,4.919,0
2024-11-18T17:41:15.990734,-3.005,-1.178,1.300,0.0000000,0.0000000,0.786,604.236,4.919,0
2024-11-18T17:41:16.096314,-3.003,-1.176,1.298,0.0000000,0.0000000,0.773,604.230,4.940,0
2024-11-18T17:41:16.209284,-3.001,-1.175,1.295,0.0000000,0.0000000,0.805,604.242,4.929,0
2024-11-18T17:41:16.314596,-2.998,-1.174,1.293,0.0000000,0.0000000,0.817,604.256,4.929,0
2024-11-18T17:41:16.429723,-2.996,-1.172,1.291,0.0000000,0.0000000,0.836,604.254,4.940,0
2024-11-18T17:41:16.539458,-2.994,-1.171,1.289,0.0000000,0.0000000,0.743,604.270,4.929,0
2024-11-18T17:41:16.649752,-2.992,-1.169,1.287,0.0000000,0.0000000,0.827,604.278,4.929,0
2024-11-18T17:41:16.758750,-2.989,-1.168,1.285,0.0000000,0.0000000,0.743,604.309,4.919,0
2024-11-18T17:41:16.869826,-2.987,-1.166,1.283,0.0000000,0.0000000,0.850,604.306,4.919,0
2024-11-18T17:41:16.979848,-2.985,-1.165,1.281,0.0000000,0.0000000,0.820,604.335,4.940,0
2024-11-18T17:41:17.089369,-2.983,-1.163,1.278,0.0000000,0.0000000,0.805,604.333,4.929,0
2024-11-18T17:41:17.200209,-2.981,-1.162,1.276,0.0000000,0.0000000,0.753,604.324,4.940,0
2024-11-18T17:41:17.309838,-2.979,-1.161,1.274,0.0000000,0.0000000,0.769,604.359,4.940,0
2024-11-18T17:41:17.417360,-2.976,-1.159,1.272,0.0000000,0.0000000,0.722,604.382,4.929,0
2024-11-18T17:41:17.529298,-2.974,-1.158,1.270,0.0000000,0.0000000,0.786,604.391,4.929,0
2024-11-18T17:41:17.639569,-2.972,-1.156,1.268,0.0000000,0.0000000,0.850,604.382,4.919,0
2024-11-18T17:41:17.749717,-2.970,-1.155,1.266,0.0000000,0.0000000,0.756,604.347,4.929,0
2024-11-18T17:41:17.859300,-2.968,-1.154,1.264,0.0000000,0.0000000,0.817,604.326,4.898,0
2024-11-18T17:41:17.968297,-2.966,-1.152,1.262,0.0000000,0.0000000,0.792,604.357,4.929,0
2024-11-18T17:41:18.079252,-2.964,-1.151,1.260,0.0000000,0.0000000,0.735,604.374,4.929,0
2024-11-18T17:41:18.187900,-2.962,-1.149,1.258,0.0000000,0.0000000,0.850,604.396,4.929,0
2024-11-18T17:41:18.299583,-2.960,-1.148,1.256,0.0000000,0.0000000,0.836,604.387,4.940,0
2024-11-18T17:41:18.410645,-2.958,-1.146,1.255,0.0000000,0.0000000,0.773,604.390,4.940,0
2024-11-18T17:41:18.520319,-2.956,-1.145,1.253,0.0000000,0.0000000,0.756,604.437,4.919,0
2024-11-18T17:41:18.629687,-2.955,-1.143,1.251,0.0000000,0.0000000,0.801,604.449,4.919,0
2024-11-18T17:41:18.736156,-2.953,-1.142,1.249,0.0000000,0.0000000,0.786,604.448,4.909,0
2024-11-18T17:41:18.849827,-2.951,-1.140,1.247,0.0000000,0.0000000,0.850,604.424,4.940,0
2024-11-18T17:41:18.954571,-2.949,-1.139,1.245,0.0000000,0.0000000,0.817,604.500,4.940,0
2024-11-18T17:41:19.069580,-2.947,-1.137,1.243,0.0000000,0.0000000,0.738,604.536,4.919,0
2024-11-18T17:41:19.179432,-2.945,-1.136,1.241,0.0000000,0.0000000,0.836,604.526,4.909,0
2024-11-18T17:41:19.289617,-2.943,-1.134,1.240,0.0000000,0.0000000,0.769,604.552,4.929,0
2024-11-18T17:41:19.397692,-2.941,-1.133,1.238,0.0000000,0.0000000,0.840,604.577,4.919,0
2024-11-18T17:41:19.509423,-2.939,-1.131,1.236,0.0000000,0.0000000,0.836,604.603,4.909,0
2024-11-18T17:41:19.614897,-2.937,-1.130,1.234,0.0000000,0.0000000,0.836,604.675,4.898,0
2024-11-18T17:41:19.729845,-2.936,-1.128,1.233,0.0000000,0.0000000,0.773,604.674,4.898,0
2024-11-18T17:41:19.838223,-2.934,-1.127,1.231,0.0000000,0.0000000,0.786,604.690,4.909,0
2024-11-18T17:41:19.949678,-2.932,-1.125,1.229,0.0000000,0.0000000,0.743,604.684,4.909,0
2024-11-18T17:41:20.059484,-2.930,-1.124,1.227,0.0000000,0.0000000,0.850,604.694,4.909,0
2024-11-18T17:41:20.170366,-2.928,-1.122,1.226,0.0000000,0.0000000,0.850,604.677,4.929,0
2024-11-18T17:41:20.274467,-2.927,-1.121,1.224,0.0000000,0.0000000,0.820,604.683,4.909,0
2024-11-18T17:41:20.390321,-2.925,-1.119,1.222,0.0000000,0.0000000,0.874,604.679,4.940,0
2024-11-18T17:41:20.495167,-2.923,-1.118,1.220,0.0000000,0.0000000,0.834,604.615,4.919,0
2024-11-18T17:41:20.605573,-2.921,-1.116,1.219,0.0000000,0.0000000,0.738,604.646,4.940,0
2024-11-18T17:41:20.715852,-2.920,-1.115,1.217,0.0000000,0.0000000,0.805,604.661,4.909,0
2024-11-18T17:41:20.824527,-2.918,-1.113,1.215,0.0000000,0.0000000,0.773,604.673,4.919,0
2024-11-18T17:41:20.936784,-2.916,-1.112,1.214,0.0000000,0.0000000,0.786,604.671,4.940,0
2024-11-18T17:41:21.050101,-2.914,-1.110,1.212,0.0000000,0.0000000,0.792,604.656,4.919,0
2024-11-18T17:41:21.159959,-2.913,-1.109,1.210,0.0000000,0.0000000,0.786,604.631,4.909,0
2024-11-18T17:41:21.270464,-2.911,-1.107,1.209,0.0000000,0.0000000,0.786,604.613,4.909,0
2024-11-18T17:41:21.379486,-2.909,-1.106,1.207,0.0000000,0.0000000,0.753,604.607,4.919,0
2024-11-18T17:41:21.489150,-2.908,-1.104,1.205,0.0000000,0.0000000,0.820,604.595,4.929,0
2024-11-18T17:41:21.596676,-2.906,-1.102,1.204,0.0000000,0.0000000,0.850,604.576,4.919,0
2024-11-18T17:41:21.704573,-2.904,-1.101,1.202,0.0000000,0.0000000,0.773,604.580,4.919,0
2024-11-18T17:41:21.815420,-2.903,-1.099,1.201,0.0000000,0.0000000,0.689,604.570,4.919,0
2024-11-18T17:41:21.929445,-2.901,-1.098,1.199,0.0000000,0.0000000,0.722,604.561,4.919,0
2024-11-18T17:41:22.037317,-2.899,-1.096,1.197,0.0000000,0.0000000,0.820,604.558,4.929,0
2024-11-18T17:41:22.149296,-2.898,-1.095,1.196,0.0000000,0.0000000,0.820,604.552,4.929,0
2024-11-18T17:41:22.258595,-2.896,-1.093,1.194,0.0000000,0.0000000,0.756,604.554,4.929,0
2024-11-18T17:41:22.365658,-2.895,-1.092,1.193,0.0000000,0.0000000,0.820,604.567,4.940,0
2024-11-18T17:41:22.478839,-2.893,-1.090,1.191,0.0000000,0.0000000,0.850,604.541,4.929,0
2024-11-18T17:41:22.588745,-2.891,-1.089,1.190,0.0000000,0.0000000,0.820,604.486,4.940,0
2024-11-18T17:41:22.697140,-2.890,-1.087,1.188,0.0000000,0.0000000,0.786,604.474,4.940,0
2024-11-18T17:41:22.804446,-2.888,-1.086,1.187,0.0000000,0.0000000,0.868,604.501,4.929,0
2024-11-18T17:41:22.914563,-2.887,-1.084,1.185,0.0000000,0.0000000,0.817,604.460,4.929,0
2024-11-18T17:41:23.024397,-2.885,-1.082,1.184,0.0000000,0.0000000,0.817,604.428,4.929,0
2024-11-18T17:41:23.140190,-2.884,-1.081,1.183,0.0000000,0.0000000,0.805,604.441,4.919,0
2024-11-18T17:41:23.246409,-2.882,-1.079,1.181,0.0000000,0.0000000,0.805,604.450,4.929,0
2024-11-18T17:41:23.354648,-2.881,-1.078,1.180,0.0000000,0.0000000,0.743,604.422,4.919,0
2024-11-18T17:41:23.470552,-2.879,-1.076,1.178,0.0000000,0.0000000,0.805,604.405,4.919,0
2024-11-18T17:41:23.580370,-2.878,-1.075,1.177,0.0000000,0.0000000,0.786,604.400,4.919,0
2024-11-18T17:41:23.687565,-2.876,-1.073,1.175,0.0000000,0.0000000,0.805,604.404,4.909,0
2024-11-18T17:41:23.795929,-2.875,-1.072,1.174,0.0000000,0.0000000,0.786,604.391,4.929,0
2024-11-18T17:41:23.904620,-2.873,-1.070,1.173,0.0000000,0.0000000,0.753,604.435,4.909,0
2024-11-18T17:41:24.020954,-2.872,-1.068,1.171,0.0000000,0.0000000,0.786,604.400,4.919,0
2024-11-18T17:41:24.129555,-2.870,-1.067,1.170,0.0000000,0.0000000,0.776,604.409,4.950,0
2024-11-18T17:41:24.237835,-2.869,-1.065,1.168,0.0000000,0.0000000,0.786,604.415,4.929,0
2024-11-18T17:41:24.345937,-2.867,-1.064,1.167,0.0000000,0.0000000,0.817,604.394,4.940,0
2024-11-18T17:41:24.456263,-2.866,-1.062,1.165,0.0000000,0.0000000,0.827,604.385,4.940,0
2024-11-18T17:41:24.570272,-2.864,-1.061,1.164,0.0000000,0.0000000,0.753,604.357,4.940,0
2024-11-18T17:41:24.679621,-2.863,-1.059,1.163,0.0000000,0.0000000,0.850,604.341,4.929,0
2024-11-18T17:41:24.787791,-2.862,-1.058,1.162,0.0000000,0.0000000,0.817,604.373,4.929,0
2024-11-18T17:41:24.896631,-2.860,-1.056,1.160,0.0000000,0.0000000,0.817,604.414,4.940,0
2024-11-18T17:41:25.005059,-2.859,-1.055,1.158,0.0000000,0.0000000,0.817,604.401,4.919,0
2024-11-18T17:41:25.120392,-2.857,-1.053,1.157,0.0000000,0.0000000,0.805,604.430,4.888,0
2024-11-18T17:41:25.229579,-2.854,-1.051,1.154,0.0000000,0.0000000,0.786,604.449,4.537,0
2024-11-18T17:41:25.337971,-2.766,-1.076,1.165,0.0000000,0.0000000,0.773,604.456,4.300,0
2024-11-18T17:41:25.445558,-2.706,-1.091,1.169,0.0000000,0.0000000,0.761,604.487,4.661,0
2024-11-18T17:41:25.556361,-2.634,-1.105,1.165,0.0000000,0.0000000,0.827,604.544,4.558,0
2024-11-18T17:41:25.664874,-2.684,-1.092,1.168,0.0000000,0.0000000,0.820,604.540,4.919,0
2024-11-18T17:41:25.779331,-2.694,-1.088,1.167,0.0000000,0.0000000,0.753,604.564,4.898,0
2024-11-18T17:43:03.214497,2.672,-1.345,1.897,0.0000000,0.0000000,0.786,603.318,4.909,0
2024-11-18T17:43:03.323327,2.678,-1.344,1.891,0.0000000,0.0000000,0.773,603.308,4.940,0
2024-11-18T17:43:03.435374,2.684,-1.344,1.885,0.0000000,0.0000000,0.756,603.317,4.940,0
2024-11-18T17:43:03.554431,2.690,-1.343,1.879,0.0000000,0.0000000,0.786,603.328,4.929,0
2024-11-18T17:43:03.667112,2.697,-1.342,1.873,0.0000000,0.0000000,0.786,603.333,4.940,0
2024-11-18T17:43:03.774557,2.703,-1.341,1.867,0.0000000,0.0000000,0.753,603.367,4.940,0
2024-11-18T17:43:03.877136,2.709,-1.341,1.861,0.0000000,0.0000000,0.850,603.343,4.940,0
2024-11-18T17:43:03.984453,2.715,-1.340,1.855,0.0000000,0.0000000,0.870,603.314,4.940,0
2024-11-18T17:43:04.093427,2.721,-1.339,1.849,0.0000000,0.0000000,0.868,603.357,4.919,0
2024-11-18T17:43:04.209969,2.727,-1.339,1.843,0.0000000,0.0000000,0.817,603.365,4.940,0
2024-11-18T17:43:04.318515,2.733,-1.338,1.837,0.0000000,0.0000000,0.827,603.364,4.919,0
2024-11-18T17:43:04.434990,2.739,-1.337,1.831,0.0000000,0.0000000,0.773,603.358,4.950,0
2024-11-18T17:43:04.547762,2.745,-1.336,1.825,0.0000000,0.0000000,0.786,603.339,4.940,0
2024-11-18T17:43:04.658557,2.750,-1.336,1.819,0.0000000,0.0000000,0.820,603.299,4.929,0
2024-11-18T17:43:04.764651,2.756,-1.335,1.814,0.0000000,0.0000000,0.836,603.275,4.950,0
2024-11-18T17:43:04.877792,2.761,-1.334,1.809,0.0000000,0.0000000,0.868,603.248,4.919,0
2024-11-18T17:43:04.997033,2.767,-1.333,1.803,0.0000000,0.0000000,0.756,603.268,4.950,0
2024-11-18T17:43:05.108784,2.773,-1.333,1.797,0.0000000,0.0000000,0.786,603.284,4.929,0
2024-11-18T17:43:05.217748,2.778,-1.332,1.792,0.0000000,0.0000000,0.756,603.278,4.940,0
2024-11-18T17:43:05.327535,2.784,-1.331,1.786,0.0000000,0.0000000,0.839,603.290,4.919,0
2024-11-18T17:43:05.434623,2.790,-1.330,1.780,0.0000000,0.0000000,0.805,603.302,4.940,0
